[
  {
    "name": "Vatican City",
    "lat": 41.9000122264,
    "lon": 12.4478083889,
    "population": 832
  },
  {
    "name": "San Marino",
    "lat": 43.9171500845,
    "lon": 12.4666702867,
    "population": 29579
  },
  {
    "name": "Vaduz",
    "lat": 47.1337237743,
    "lon": 9.51666947291,
    "population": 36281
  },
  {
    "name": "Lobamba",
    "lat": -26.4666674614,
    "lon": 31.1999971097,
    "population": 9782
  },
  {
    "name": "Luxembourg",
    "lat": 49.6116603791,
    "lon": 6.13000280623,
    "population": 107260
  },
  {
    "name": "Palikir",
    "lat": 6.91664369601,
    "lon": 158.149974324,
    "population": 4645
  },
  {
    "name": "Majuro",
    "lat": 7.10300431122,
    "lon": 171.380000176,
    "population": 25400
  },
  {
    "name": "Funafuti",
    "lat": -8.51665199904,
    "lon": 179.216647094,
    "population": 4749
  },
  {
    "name": "Melekeok",
    "lat": 7.48739617298,
    "lon": 134.626548467,
    "population": 7026
  },
  {
    "name": "Bir Lehlou",
    "lat": 26.119166686,
    "lon": -9.65252221825,
    "population": 500
  },
  {
    "name": "Monaco",
    "lat": 43.7396456879,
    "lon": 7.40691317347,
    "population": 36371
  },
  {
    "name": "Tarawa",
    "lat": 1.33818750562,
    "lon": 173.017570829,
    "population": 28802
  },
  {
    "name": "Moroni",
    "lat": -11.7041576957,
    "lon": 43.2402440987,
    "population": 128698
  },
  {
    "name": "Andorra",
    "lat": 42.5000014435,
    "lon": 1.51648596051,
    "population": 53998
  },
  {
    "name": "Port-of-Spain",
    "lat": 10.6519970896,
    "lon": -61.5170308854,
    "population": 294934
  },
  {
    "name": "Kigali",
    "lat": -1.95359006868,
    "lon": 30.0605317777,
    "population": 860000
  },
  {
    "name": "Mbabane",
    "lat": -26.3166507784,
    "lon": 31.1333345121,
    "population": 90138
  },
  {
    "name": "Juba",
    "lat": 4.82997519828,
    "lon": 31.5800255928,
    "population": 111975
  },
  {
    "name": "The Hague",
    "lat": 52.080036844,
    "lon": 4.26996130231,
    "population": 1406000
  },
  {
    "name": "Ljubljana",
    "lat": 46.0552883088,
    "lon": 14.5149690335,
    "population": 314807
  },
  {
    "name": "Bratislava",
    "lat": 48.15001833,
    "lon": 17.1169807522,
    "population": 423737
  },
  {
    "name": "Doha",
    "lat": 25.2865560089,
    "lon": 51.5329678943,
    "population": 1450000
  },
  {
    "name": "Podgorica",
    "lat": 42.4659725129,
    "lon": 19.2663069241,
    "population": 145850
  },
  {
    "name": "Sri Jawewardenepura Kotte",
    "lat": 6.90000388481,
    "lon": 79.9499930409,
    "population": 115826
  },
  {
    "name": "Baguio City",
    "lat": 16.4299906606,
    "lon": 120.569942585,
    "population": 447824
  },
  {
    "name": "Dodoma",
    "lat": -6.18330605177,
    "lon": 35.7500036201,
    "population": 218269
  },
  {
    "name": "Bern",
    "lat": 46.9166827587,
    "lon": 7.46697546248,
    "population": 275329
  },
  {
    "name": "Laayoune",
    "lat": 27.1499823191,
    "lon": -13.2000059422,
    "population": 188084
  },
  {
    "name": "Pristina",
    "lat": 42.6667096141,
    "lon": 21.1659842516,
    "population": 465186
  },
  {
    "name": "Roseau",
    "lat": 15.3010156443,
    "lon": -61.3870129818,
    "population": 23336
  },
  {
    "name": "Djibouti",
    "lat": 11.5950144643,
    "lon": 43.1480016671,
    "population": 923000
  },
  {
    "name": "Putrajaya",
    "lat": 2.91401979462,
    "lon": 101.70194698,
    "population": 67964
  },
  {
    "name": "Kyoto",
    "lat": 35.0299922882,
    "lon": 135.749997924,
    "population": 1805000
  },
  {
    "name": "Banjul",
    "lat": 13.4538764603,
    "lon": -16.5917014892,
    "population": 43094
  },
  {
    "name": "Skopje",
    "lat": 42.0000061229,
    "lon": 21.4334614651,
    "population": 494087
  },
  {
    "name": "Bridgetown",
    "lat": 13.1020025828,
    "lon": -59.6165267351,
    "population": 191152
  },
  {
    "name": "Porto-Novo",
    "lat": 6.48331097302,
    "lon": 2.61662552757,
    "population": 300000
  },
  {
    "name": "Bujumbura",
    "lat": -3.37608722037,
    "lon": 29.3600060615,
    "population": 331700
  },
  {
    "name": "Kingstown",
    "lat": 13.1482788279,
    "lon": -61.2120624203,
    "population": 49485
  },
  {
    "name": "Castries",
    "lat": 14.0019734893,
    "lon": -61.0000081804,
    "population": 37963
  },
  {
    "name": "Basseterre",
    "lat": 17.3020304555,
    "lon": -62.7170093197,
    "population": 21887
  },
  {
    "name": "Port Louis",
    "lat": -20.1666385714,
    "lon": 57.4999938546,
    "population": 595491
  },
  {
    "name": "Saint George's",
    "lat": 12.0526334017,
    "lon": -61.7416432261,
    "population": 33734
  },
  {
    "name": "Manama",
    "lat": 26.2361362905,
    "lon": 50.5830517159,
    "population": 563920
  },
  {
    "name": "Saint John's",
    "lat": 17.1180365183,
    "lon": -61.8500338151,
    "population": 35499
  },
  {
    "name": "Montevideo",
    "lat": -34.8580415662,
    "lon": -56.1710522884,
    "population": 1513000
  },
  {
    "name": "Lomé",
    "lat": 6.13193707166,
    "lon": 1.22275711936,
    "population": 1452000
  },
  {
    "name": "Tunis",
    "lat": 36.8027781362,
    "lon": 10.1796780992,
    "population": 2412500
  },
  {
    "name": "Abu Dhabi",
    "lat": 24.4666835724,
    "lon": 54.3665933826,
    "population": 603492
  },
  {
    "name": "Ashgabat",
    "lat": 37.9499949331,
    "lon": 58.3832991118,
    "population": 727700
  },
  {
    "name": "Lusaka",
    "lat": -15.4166442679,
    "lon": 28.2833275947,
    "population": 1328000
  },
  {
    "name": "Harare",
    "lat": -17.8177896944,
    "lon": 31.0447094307,
    "population": 1572000
  },
  {
    "name": "Dili",
    "lat": -8.55938840855,
    "lon": 125.579455932,
    "population": 234331
  },
  {
    "name": "Port Vila",
    "lat": -17.733350404,
    "lon": 168.316640584,
    "population": 44040
  },
  {
    "name": "Tegucigalpa",
    "lat": 14.1020449005,
    "lon": -87.2175293393,
    "population": 946000
  },
  {
    "name": "Georgetown",
    "lat": 6.80197369275,
    "lon": -58.1670286475,
    "population": 264350
  },
  {
    "name": "Reykjavík",
    "lat": 64.1500236197,
    "lon": -21.9500144872,
    "population": 166212
  },
  {
    "name": "Port-au-Prince",
    "lat": 18.5410245961,
    "lon": -72.3360345883,
    "population": 1998000
  },
  {
    "name": "Kampala",
    "lat": 0.31665895477,
    "lon": 32.5833235257,
    "population": 1420000
  },
  {
    "name": "Paramaribo",
    "lat": 5.83503012992,
    "lon": -55.1670308854,
    "population": 254169
  },
  {
    "name": "Niamey",
    "lat": 13.5167059519,
    "lon": 2.11665604514,
    "population": 915000
  },
  {
    "name": "Dushanbe",
    "lat": 38.5600352163,
    "lon": 68.7738793527,
    "population": 1086244
  },
  {
    "name": "Asunción",
    "lat": -25.2964029757,
    "lon": -57.6415051693,
    "population": 1870000
  },
  {
    "name": "Managua",
    "lat": 12.1530165801,
    "lon": -86.2684916603,
    "population": 920000
  },
  {
    "name": "Freetown",
    "lat": 8.47001141249,
    "lon": -13.2342157404,
    "population": 827000
  },
  {
    "name": "Islamabad",
    "lat": 33.6999959503,
    "lon": 73.1666344797,
    "population": 780000
  },
  {
    "name": "Kathmandu",
    "lat": 27.7166919139,
    "lon": 85.3166422108,
    "population": 895000
  },
  {
    "name": "Bloemfontein",
    "lat": -29.1199938774,
    "lon": 26.2299128812,
    "population": 463064
  },
  {
    "name": "Pretoria",
    "lat": -25.7069205538,
    "lon": 28.2294290758,
    "population": 1338000
  },
  {
    "name": "Port Moresby",
    "lat": -9.46470782587,
    "lon": 147.192503621,
    "population": 283733
  },
  {
    "name": "Honiara",
    "lat": -9.43799429509,
    "lon": 159.949765734,
    "population": 76328
  },
  {
    "name": "Panama City",
    "lat": 8.96801719048,
    "lon": -79.5330371518,
    "population": 1281000
  },
  {
    "name": "Rabat",
    "lat": 34.0252990916,
    "lon": -6.83613082013,
    "population": 1705000
  },
  {
    "name": "Chișinău",
    "lat": 47.0050236197,
    "lon": 28.8577111397,
    "population": 688134
  },
  {
    "name": "Maputo",
    "lat": -25.9552774874,
    "lon": 32.5891629626,
    "population": 1446000
  },
  {
    "name": "Mogadishu",
    "lat": 2.06668133433,
    "lon": 45.3666776111,
    "population": 1100000
  },
  {
    "name": "Muscat",
    "lat": 23.6133248077,
    "lon": 58.5933121326,
    "population": 734697
  },
  {
    "name": "Colombo",
    "lat": 6.93196575818,
    "lon": 79.8577506093,
    "population": 217000
  },
  {
    "name": "Ulaanbaatar",
    "lat": 47.9166733999,
    "lon": 106.916615762,
    "population": 885000
  },
  {
    "name": "Windhoek",
    "lat": -22.5700060844,
    "lon": 17.0835461005,
    "population": 268132
  },
  {
    "name": "Abuja",
    "lat": 9.08333314914,
    "lon": 7.53332800155,
    "population": 1576000
  },
  {
    "name": "Bissau",
    "lat": 11.865023823,
    "lon": -15.5983608413,
    "population": 403339
  },
  {
    "name": "Amman",
    "lat": 31.9500252472,
    "lon": 35.9332999255,
    "population": 1060000
  },
  {
    "name": "Vilnius",
    "lat": 54.6833663118,
    "lon": 25.3166352933,
    "population": 542366
  },
  {
    "name": "Riga",
    "lat": 56.9500238232,
    "lon": 24.0999653714,
    "population": 742572
  },
  {
    "name": "Bishkek",
    "lat": 42.8730794465,
    "lon": 74.5852042225,
    "population": 837000
  },
  {
    "name": "Maseru",
    "lat": -29.3166743787,
    "lon": 27.48327307,
    "population": 361324
  },
  {
    "name": "Antananarivo",
    "lat": -18.9166373506,
    "lon": 47.5166239001,
    "population": 1697000
  },
  {
    "name": "Quito",
    "lat": -0.21498818065,
    "lon": -78.5000511085,
    "population": 1701000
  },
  {
    "name": "San José",
    "lat": 9.93501242974,
    "lon": -84.0840513527,
    "population": 1284000
  },
  {
    "name": "San Salvador",
    "lat": 13.7100016469,
    "lon": -89.2030412208,
    "population": 1433000
  },
  {
    "name": "Kingston",
    "lat": 17.9770766238,
    "lon": -76.7674337137,
    "population": 937700
  },
  {
    "name": "Ndjamena",
    "lat": 12.1130965362,
    "lon": 15.0491483141,
    "population": 989000
  },
  {
    "name": "Malabo",
    "lat": 3.75001527803,
    "lon": 8.78327754582,
    "population": 155963
  },
  {
    "name": "Asmara",
    "lat": 15.3333392527,
    "lon": 38.9333235258,
    "population": 620802
  },
  {
    "name": "Zagreb",
    "lat": 45.8000067333,
    "lon": 15.9999946682,
    "population": 722526
  },
  {
    "name": "Tallinn",
    "lat": 59.4338773795,
    "lon": 24.7280407295,
    "population": 394024
  },
  {
    "name": "Lilongwe",
    "lat": -13.9832950655,
    "lon": 33.78330196,
    "population": 646750
  },
  {
    "name": "Guatemala",
    "lat": 14.6211346628,
    "lon": -90.5269655779,
    "population": 1024000
  },
  {
    "name": "Libreville",
    "lat": 0.38538860972,
    "lon": 9.45796504582,
    "population": 578156
  },
  {
    "name": "Suva",
    "lat": -18.1330159314,
    "lon": 178.441707315,
    "population": 175399
  },
  {
    "name": "Valparaíso",
    "lat": -33.0477644666,
    "lon": -71.6210136329,
    "population": 854000
  },
  {
    "name": "Nouakchott",
    "lat": 18.0864270212,
    "lon": -15.9753404149,
    "population": 742144
  },
  {
    "name": "Bamako",
    "lat": 12.6500146677,
    "lon": -8.00003910464,
    "population": 1494000
  },
  {
    "name": "Beirut",
    "lat": 33.871975117,
    "lon": 35.50970821,
    "population": 1846000
  },
  {
    "name": "Tbilisi",
    "lat": 41.7250099885,
    "lon": 44.7907954496,
    "population": 1100000
  },
  {
    "name": "Astana",
    "lat": 51.1811253043,
    "lon": 71.4277742095,
    "population": 345604
  },
  {
    "name": "Vientiane",
    "lat": 17.9666927276,
    "lon": 102.59998002,
    "population": 754000
  },
  {
    "name": "Brazzaville",
    "lat": -4.25918577181,
    "lon": 15.2846894925,
    "population": 1355000
  },
  {
    "name": "Conakry",
    "lat": 9.53152284641,
    "lon": -13.6802350275,
    "population": 1494000
  },
  {
    "name": "Yamoussoukro",
    "lat": 6.81838096,
    "lon": -5.27550256491,
    "population": 206499
  },
  {
    "name": "Ottawa",
    "lat": 45.4166967967,
    "lon": -75.7000153012,
    "population": 1145000
  },
  {
    "name": "Belgrade",
    "lat": 44.8186454458,
    "lon": 20.4679906806,
    "population": 1099000
  },
  {
    "name": "Bandar Seri Begawan",
    "lat": 4.88333111462,
    "lon": 114.933284057,
    "population": 296500
  },
  {
    "name": "Sucre",
    "lat": -19.0409708467,
    "lon": -65.2595156267,
    "population": 224838
  },
  {
    "name": "Belmopan",
    "lat": 17.2520335072,
    "lon": -88.7670729998,
    "population": 15220
  },
  {
    "name": "Bangui",
    "lat": 4.36664430635,
    "lon": 18.5582881253,
    "population": 831925
  },
  {
    "name": "Yaounde",
    "lat": 3.86670066214,
    "lon": 11.5166507555,
    "population": 1611000
  },
  {
    "name": "Tirana",
    "lat": 41.3275407095,
    "lon": 19.8188830146,
    "population": 895350
  },
  {
    "name": "Yerevan",
    "lat": 40.1811507355,
    "lon": 44.5135513904,
    "population": 1102000
  },
  {
    "name": "Baku",
    "lat": 40.3952720327,
    "lon": 49.8622171619,
    "population": 2122300
  },
  {
    "name": "Phnom Penh",
    "lat": 11.5500301299,
    "lon": 104.91663448,
    "population": 1466000
  },
  {
    "name": "La Paz",
    "lat": -16.4979736137,
    "lon": -68.1499851905,
    "population": 1590000
  },
  {
    "name": "Cotonou",
    "lat": 6.40000856417,
    "lon": 2.51999059918,
    "population": 762000
  },
  {
    "name": "Sofia",
    "lat": 42.6833494253,
    "lon": 23.3166540107,
    "population": 1185000
  },
  {
    "name": "Minsk",
    "lat": 53.8999774364,
    "lon": 27.5666271553,
    "population": 1805000
  },
  {
    "name": "Thimphu",
    "lat": 27.4729858592,
    "lon": 89.639014037,
    "population": 98676
  },
  {
    "name": "Gaborone",
    "lat": -24.6463134574,
    "lon": 25.9119477933,
    "population": 208411
  },
  {
    "name": "Canberra",
    "lat": -35.2830285454,
    "lon": 149.129026244,
    "population": 327700
  },
  {
    "name": "Ouagadougou",
    "lat": 12.3703159779,
    "lon": -1.5247237563,
    "population": 1149000
  },
  {
    "name": "Sarajevo",
    "lat": 43.850022399,
    "lon": 18.383001667,
    "population": 696731
  },
  {
    "name": "Naypyidaw",
    "lat": 19.7665570261,
    "lon": 96.1186185292,
    "population": 930000
  },
  {
    "name": "Nukualofa",
    "lat": -21.1385123567,
    "lon": -175.220564478,
    "population": 42620
  },
  {
    "name": "Hargeysa",
    "lat": 9.56002239882,
    "lon": 44.0653100167,
    "population": 477876
  },
  {
    "name": "Victoria",
    "lat": -4.61663165397,
    "lon": 55.4499897856,
    "population": 33576
  },
  {
    "name": "São Tomé",
    "lat": 0.33340211883,
    "lon": 6.73332515323,
    "population": 88219
  },
  {
    "name": "Apia",
    "lat": -13.8415450424,
    "lon": -171.738641609,
    "population": 61916
  },
  {
    "name": "Valletta",
    "lat": 35.8997324819,
    "lon": 14.5147106513,
    "population": 368250
  },
  {
    "name": "Malé",
    "lat": 4.16670818981,
    "lon": 73.499947468,
    "population": 112927
  },
  {
    "name": "Jerusalem",
    "lat": 31.7784078156,
    "lon": 35.2066259346,
    "population": 1029300
  },
  {
    "name": "Praia",
    "lat": 14.9166980173,
    "lon": -23.516688885,
    "population": 113364
  },
  {
    "name": "Nassau",
    "lat": 25.0833901154,
    "lon": -77.3500437843,
    "population": 227940
  },
  {
    "name": "Nicosia",
    "lat": 35.1666764517,
    "lon": 33.3666348864,
    "population": 224300
  },
  {
    "name": "Wellington",
    "lat": -41.29998785369,
    "lon": 174.78326585928,
    "population": 393400
  },
  {
    "name": "Hanoi",
    "lat": 21.0333272491,
    "lon": 105.8500142,
    "population": 4378000
  },
  {
    "name": "Ankara",
    "lat": 39.9272385855,
    "lon": 32.864391641,
    "population": 3716000
  },
  {
    "name": "Budapest",
    "lat": 47.5000063264,
    "lon": 19.0833206774,
    "population": 1679000
  },
  {
    "name": "Sanaa",
    "lat": 15.3547332957,
    "lon": 44.2065933826,
    "population": 2008000
  },
  {
    "name": "Bucharest",
    "lat": 44.4333718049,
    "lon": 26.099946654,
    "population": 1942000
  },
  {
    "name": "Damascus",
    "lat": 33.5000339956,
    "lon": 36.299995889,
    "population": 2466000
  },
  {
    "name": "Lisbon",
    "lat": 38.7227228779,
    "lon": -9.14486630549,
    "population": 2812000
  },
  {
    "name": "Khartoum",
    "lat": 15.5880782257,
    "lon": 32.5341792386,
    "population": 4754000
  },
  {
    "name": "Oslo",
    "lat": 59.9166902864,
    "lon": 10.749979206,
    "population": 835000
  },
  {
    "name": "Warsaw",
    "lat": 52.2500006298,
    "lon": 20.9999995511,
    "population": 1707000
  },
  {
    "name": "Pyongyang",
    "lat": 39.0194386994,
    "lon": 125.754690714,
    "population": 3300000
  },
  {
    "name": "Dar es Salaam",
    "lat": -6.80001259474,
    "lon": 39.2683418363,
    "population": 2930000
  },
  {
    "name": "Dublin",
    "lat": 53.333061136,
    "lon": -6.24890568178,
    "population": 1059000
  },
  {
    "name": "Monrovia",
    "lat": 6.31055665987,
    "lon": -10.8047516291,
    "population": 1041000
  },
  {
    "name": "Kuala Lumpur",
    "lat": 3.1666658721,
    "lon": 101.699983275,
    "population": 1448000
  },
  {
    "name": "Havana",
    "lat": 23.1319588409,
    "lon": -82.3641821713,
    "population": 2174000
  },
  {
    "name": "Prague",
    "lat": 50.0833370149,
    "lon": 14.4659797757,
    "population": 1162000
  },
  {
    "name": "Kuwait",
    "lat": 29.36971763,
    "lon": 47.9783011462,
    "population": 2063000
  },
  {
    "name": "Santo Domingo",
    "lat": 18.4700728546,
    "lon": -69.9000850847,
    "population": 2154000
  },
  {
    "name": "Accra",
    "lat": 5.55003460583,
    "lon": -0.21671574035,
    "population": 2121000
  },
  {
    "name": "Tripoli",
    "lat": 32.8925000194,
    "lon": 13.1800117581,
    "population": 2189000
  },
  {
    "name": "Tel Aviv-Yafo",
    "lat": 32.0799914744,
    "lon": 34.7700117582,
    "population": 3112000
  },
  {
    "name": "Helsinki",
    "lat": 60.175563374,
    "lon": 24.9341263415,
    "population": 1115000
  },
  {
    "name": "København",
    "lat": 55.6785641904,
    "lon": 12.5634857473,
    "population": 1085000
  },
  {
    "name": "Abidjan",
    "lat": 5.31999696749,
    "lon": -4.04004825989,
    "population": 3802000
  },
  {
    "name": "Brasília",
    "lat": -15.7833402315,
    "lon": -47.9160522884,
    "population": 3716996
  },
  {
    "name": "Brussels",
    "lat": 50.8333170767,
    "lon": 4.3333166083,
    "population": 1743000
  },
  {
    "name": "Dhaka",
    "lat": 23.7230597117,
    "lon": 90.4085794667,
    "population": 12797394
  },
  {
    "name": "Luanda",
    "lat": -8.83828611363,
    "lon": 13.2344270413,
    "population": 5172900
  },
  {
    "name": "Algiers",
    "lat": 36.763064798,
    "lon": 3.05055252952,
    "population": 3354000
  },
  {
    "name": "Rangoon",
    "lat": 16.7833541046,
    "lon": 96.1666776113,
    "population": 4088000
  },
  {
    "name": "San Francisco",
    "lat": 37.7400077505,
    "lon": -122.459977663,
    "population": 3450000
  },
  {
    "name": "Denver",
    "lat": 39.7391880484,
    "lon": -104.984015952,
    "population": 2313000
  },
  {
    "name": "Houston",
    "lat": 29.8199743846,
    "lon": -95.3399792905,
    "population": 4459000
  },
  {
    "name": "Miami",
    "lat": 25.7876106964,
    "lon": -80.2241060808,
    "population": 5585000
  },
  {
    "name": "Atlanta",
    "lat": 33.830013854,
    "lon": -84.3999493833,
    "population": 4506000
  },
  {
    "name": "Chicago",
    "lat": 41.8299906607,
    "lon": -87.7500549741,
    "population": 8990000
  },
  {
    "name": "Caracas",
    "lat": 10.5009985544,
    "lon": -66.9170371924,
    "population": 2985000
  },
  {
    "name": "Kiev",
    "lat": 50.433367329,
    "lon": 30.5166279691,
    "population": 2709000
  },
  {
    "name": "Dubai",
    "lat": 25.2299961538,
    "lon": 55.2799743234,
    "population": 1379000
  },
  {
    "name": "Tashkent",
    "lat": 41.311701883,
    "lon": 69.2949328195,
    "population": 2184000
  },
  {
    "name": "Madrid",
    "lat": 40.4000262645,
    "lon": -3.683351686,
    "population": 5567000
  },
  {
    "name": "Geneva",
    "lat": 46.2100075471,
    "lon": 6.14002803409,
    "population": 1240000
  },
  {
    "name": "Stockholm",
    "lat": 59.3507599543,
    "lon": 18.0973347328,
    "population": 1264000
  },
  {
    "name": "Bangkok",
    "lat": 13.7499992055,
    "lon": 100.516644652,
    "population": 6704000
  },
  {
    "name": "Lima",
    "lat": -12.0480126761,
    "lon": -77.0500620948,
    "population": 8012000
  },
  {
    "name": "Dakar",
    "lat": 14.715831725,
    "lon": -17.4731301284,
    "population": 2604000
  },
  {
    "name": "Johannesburg",
    "lat": -26.17004474,
    "lon": 28.0300097236,
    "population": 3435000
  },
  {
    "name": "Amsterdam",
    "lat": 52.3499686881,
    "lon": 4.91664017601,
    "population": 1031000
  },
  {
    "name": "Casablanca",
    "lat": 33.5999762156,
    "lon": -7.61636743309,
    "population": 3181000
  },
  {
    "name": "Seoul",
    "lat": 37.5663490998,
    "lon": 126.999730997,
    "population": 9796000
  },
  {
    "name": "Manila",
    "lat": 14.6041589548,
    "lon": 120.982217162,
    "population": 11100000
  },
  {
    "name": "Monterrey",
    "lat": 25.6699951365,
    "lon": -100.329984784,
    "population": 3712000
  },
  {
    "name": "Berlin",
    "lat": 52.5218186636,
    "lon": 13.4015486233,
    "population": 3406000
  },
  {
    "name": "Ürümqi",
    "lat": 43.8050122264,
    "lon": 87.5750056549,
    "population": 2151000
  },
  {
    "name": "Chengdu",
    "lat": 30.6700000193,
    "lon": 104.07001949,
    "population": 4123000
  },
  {
    "name": "Ōsaka",
    "lat": 34.7500352163,
    "lon": 135.460144815,
    "population": 11294000
  },
  {
    "name": "Kinshasa",
    "lat": -4.32972410189,
    "lon": 15.3149718818,
    "population": 7843000
  },
  {
    "name": "New Delhi",
    "lat": 28.6000230092,
    "lon": 77.1999800201,
    "population": 317797
  },
  {
    "name": "Bangalore",
    "lat": 12.9699951365,
    "lon": 77.5600097238,
    "population": 6787000
  },
  {
    "name": "Athens",
    "lat": 37.9833262319,
    "lon": 23.7333210843,
    "population": 3242000
  },
  {
    "name": "Baghdad",
    "lat": 33.3386484975,
    "lon": 44.3938687732,
    "population": 5054000
  },
  {
    "name": "Addis Ababa",
    "lat": 9.03331036268,
    "lon": 38.700004434,
    "population": 3100000
  },
  {
    "name": "Tehran",
    "lat": 35.6719427684,
    "lon": 51.4243440336,
    "population": 7873000
  },
  {
    "name": "Vancouver",
    "lat": 49.2734165841,
    "lon": -123.121644218,
    "population": 2313328
  },
  {
    "name": "Toronto",
    "lat": 43.6999798778,
    "lon": -79.4200207944,
    "population": 5213000
  },
  {
    "name": "Buenos Aires",
    "lat": -34.6025016085,
    "lon": -58.3975313737,
    "population": 12795000
  },
  {
    "name": "Kabul",
    "lat": 34.5166902863,
    "lon": 69.1832600493,
    "population": 3277000
  },
  {
    "name": "Vienna",
    "lat": 48.2000152782,
    "lon": 16.3666389554,
    "population": 2400000
  },
  {
    "name": "Melbourne",
    "lat": -37.8200313123,
    "lon": 144.975016235,
    "population": 4170000
  },
  {
    "name": "Taipei",
    "lat": 25.03583333333,
    "lon": 121.56833333333,
    "population": 6900273
  },
  {
    "name": "Auckland",
    "lat": -36.84805489493,
    "lon": 174.76302698708,
    "population": 1377200
  },
  {
    "name": "Los Angeles",
    "lat": 33.9899782502,
    "lon": -118.179980511,
    "population": 12500000
  },
  {
    "name": "Washington, D.C.",
    "lat": 38.8995493765,
    "lon": -77.0094185808,
    "population": 4338000
  },
  {
    "name": "New York",
    "lat": 40.749979064,
    "lon": -73.9800169288,
    "population": 19040000
  },
  {
    "name": "London",
    "lat": 51.4999947297,
    "lon": -0.11672184386,
    "population": 8567000
  },
  {
    "name": "Istanbul",
    "lat": 41.1049961538,
    "lon": 29.0100015856,
    "population": 10061000
  },
  {
    "name": "Riyadh",
    "lat": 24.6408331492,
    "lon": 46.7727416573,
    "population": 4465000
  },
  {
    "name": "Cape Town",
    "lat": -33.9200109672,
    "lon": 18.4349881578,
    "population": 3215000
  },
  {
    "name": "Moscow",
    "lat": 55.7521641226,
    "lon": 37.6155228259,
    "population": 10452000
  },
  {
    "name": "Mexico City",
    "lat": 19.4424424428,
    "lon": -99.1309882017,
    "population": 19028000
  },
  {
    "name": "Lagos",
    "lat": 6.44326165348,
    "lon": 3.39153107121,
    "population": 9466000
  },
  {
    "name": "Rome",
    "lat": 41.8959556265,
    "lon": 12.4832584215,
    "population": 3339000
  },
  {
    "name": "Beijing",
    "lat": 39.9288922313,
    "lon": 116.388285684,
    "population": 11106000
  },
  {
    "name": "Nairobi",
    "lat": -1.28334674185,
    "lon": 36.8166568591,
    "population": 3010000
  },
  {
    "name": "Jakarta",
    "lat": -6.17441770541,
    "lon": 106.829437621,
    "population": 9125000
  },
  {
    "name": "Bogota",
    "lat": 4.59642356253,
    "lon": -74.0833439552,
    "population": 7772000
  },
  {
    "name": "Cairo",
    "lat": 30.0499603465,
    "lon": 31.2499682197,
    "population": 11893000
  },
  {
    "name": "Shanghai",
    "lat": 31.2164524526,
    "lon": 121.436504678,
    "population": 14987000
  },
  {
    "name": "Tokyo",
    "lat": 35.6850169058,
    "lon": 139.751407429,
    "population": 35676000
  },
  {
    "name": "Mumbai",
    "lat": 19.0169903757,
    "lon": 72.8569892974,
    "population": 18978000
  },
  {
    "name": "Paris",
    "lat": 48.8666929312,
    "lon": 2.33333532574,
    "population": 9904000
  },
  {
    "name": "Santiago",
    "lat": -33.4500138155,
    "lon": -70.6670408546,
    "population": 5720000
  },
  {
    "name": "Kolkata",
    "lat": 22.4949692983,
    "lon": 88.3246756581,
    "population": 14787000
  },
  {
    "name": "Rio de Janeiro",
    "lat": -22.9250231742,
    "lon": -43.2250207942,
    "population": 11748000
  },
  {
    "name": "São Paulo",
    "lat": -23.558679587,
    "lon": -46.6250199804,
    "population": 18845000
  },
  {
    "name": "Sydney",
    "lat": -33.9200109672,
    "lon": 151.185179809,
    "population": 4630000
  },
  {
    "name": "Singapore",
    "lat": 1.29303346649,
    "lon": 103.855820678,
    "population": 5183700
  },
  {
    "name": "Hong Kong",
    "lat": 22.304980895,
    "lon": 114.185009317,
    "population": 7206000
  }
]